{
"type": "FeatureCollection",
"name": "EuropaPunkte",
"crs": { "type": "name", "properties": { "name": "urn:ogc:def:crs:OGC:1.3:CRS84" } },
"features": [
{ "type": "Feature", "properties": { "name": "ICELAND", "Bev": 339037.0, "Bev_Arm_ab": 28479.0, "Bev_Arm_re": 8.4, "Bev_Bil_ab": 0.0, "Bev_Bil_re": 97.4, "Bil_hnx": null, "Pyramide": "3", "ORIG_FID": 0 }, "geometry": { "type": "Point", "coordinates": [ -19.009222507712536, 64.792266951958311 ] } },
{ "type": "Feature", "properties": { "name": "SWEDEN", "Bev": 10036391.0, "Bev_Arm_ab": 1525531.0, "Bev_Arm_re": 15.2, "Bev_Bil_ab": 0.0, "Bev_Bil_re": 95.9, "Bil_hnx": null, "Pyramide": "3", "ORIG_FID": 1 }, "geometry": { "type": "Point", "coordinates": [ 20.887822224116405, 66.434054048355677 ] } },
{ "type": "Feature", "properties": { "name": "ALBANIA", "Bev": 2877800.0, "Bev_Arm_ab": 414800.0, "Bev_Arm_re": 14.3, "Bev_Bil_ab": 0.0, "Bev_Bil_re": 88.1, "Bil_hnx": null, "Pyramide": "3", "ORIG_FID": 2 }, "geometry": { "type": "Point", "coordinates": [ 20.066982556100129, 41.139422726877399 ] } },
{ "type": "Feature", "properties": { "name": "DENMARK", "Bev": 5771876.0, "Bev_Arm_ab": 721484.0, "Bev_Arm_re": 12.5, "Bev_Bil_ab": 0.0, "Bev_Bil_re": 100.0, "Bil_hnx": null, "Pyramide": "3", "ORIG_FID": 3 }, "geometry": { "type": "Point", "coordinates": [ 9.340081900859104, 56.261371474114299 ] } },
{ "type": "Feature", "properties": { "name": "AUSTRIA", "Bev": 8955108.0, "Bev_Arm_ab": 1208939.0, "Bev_Arm_re": 13.5, "Bev_Bil_ab": 0.0, "Bev_Bil_re": 96.0, "Bil_hnx": null, "Pyramide": "4", "ORIG_FID": 4 }, "geometry": { "type": "Point", "coordinates": [ 14.141626961615032, 47.587013143341949 ] } },
{ "type": "Feature", "properties": { "name": "BOSNIA & HERZEGOVINA", "Bev": 3300998.0, "Bev_Arm_ab": 557868.0, "Bev_Arm_re": 16.9, "Bev_Bil_ab": 0.0, "Bev_Bil_re": 0.0, "Bil_hnx": null, "Pyramide": "3", "ORIG_FID": 5 }, "geometry": { "type": "Point", "coordinates": [ 17.785854113476603, 44.168436824100183 ] } },
{ "type": "Feature", "properties": { "name": "BULGARIA", "Bev": 7000116.0, "Bev_Arm_ab": 1638027.0, "Bev_Arm_re": 23.4, "Bev_Bil_ab": 0.0, "Bev_Bil_re": 82.4, "Bil_hnx": null, "Pyramide": "4", "ORIG_FID": 6 }, "geometry": { "type": "Point", "coordinates": [ 25.234956434891615, 42.757911078033885 ] } },
{ "type": "Feature", "properties": { "name": "BELGIUM", "Bev": 11539326.0, "Bev_Arm_ab": 1719359.0, "Bev_Arm_re": 14.9, "Bev_Bil_ab": 0.0, "Bev_Bil_re": 98.5, "Bil_hnx": null, "Pyramide": "3", "ORIG_FID": 7 }, "geometry": { "type": "Point", "coordinates": [ 4.661074942154926, 50.641052425129374 ] } },
{ "type": "Feature", "properties": { "name": "ESTONIA", "Bev": 1325649.0, "Bev_Arm_ab": 288991.0, "Bev_Arm_re": 21.8, "Bev_Bil_ab": 0.0, "Bev_Bil_re": 92.8, "Bil_hnx": null, "Pyramide": "4", "ORIG_FID": 8 }, "geometry": { "type": "Point", "coordinates": [ 25.838676754528649, 58.684619539560174 ] } },
{ "type": "Feature", "properties": { "name": "CROATIA", "Bev": 4130299.0, "Bev_Arm_ab": 805408.0, "Bev_Arm_re": 19.5, "Bev_Bil_ab": 0.0, "Bev_Bil_re": 81.0, "Bil_hnx": null, "Pyramide": "3", "ORIG_FID": 9 }, "geometry": { "type": "Point", "coordinates": [ 17.955276639205579, 45.452055288221004 ] } },
{ "type": "Feature", "properties": { "name": "CYPRUS", "Bev": 1198573.0, "Bev_Arm_ab": 188175.0, "Bev_Arm_re": 15.7, "Bev_Bil_ab": 0.0, "Bev_Bil_re": 95.3, "Bil_hnx": null, "Pyramide": "4", "ORIG_FID": 10 }, "geometry": { "type": "Point", "coordinates": [ 33.224231569131689, 35.057415225232489 ] } },
{ "type": "Feature", "properties": { "name": "CZECH REPUBLIC", "Bev": 10689213.0, "Bev_Arm_ab": 1036853.0, "Bev_Arm_re": 9.7, "Bev_Bil_ab": 0.0, "Bev_Bil_re": 91.5, "Bil_hnx": null, "Pyramide": "4", "ORIG_FID": 11 }, "geometry": { "type": "Point", "coordinates": [ 15.331659557142871, 49.739118628222172 ] } },
{ "type": "Feature", "properties": { "name": "FINLAND", "Bev": 5532159.0, "Bev_Arm_ab": 680455.0, "Bev_Arm_re": 12.3, "Bev_Bil_ab": 0.0, "Bev_Bil_re": 89.3, "Bil_hnx": null, "Pyramide": "3", "ORIG_FID": 12 }, "geometry": { "type": "Point", "coordinates": [ 23.308447009422025, 61.915658627243886 ] } },
{ "type": "Feature", "properties": { "name": "FRANCE", "Bev": 65273512.0, "Bev_Arm_ab": 7767547.0, "Bev_Arm_re": 11.9, "Bev_Bil_ab": 0.0, "Bev_Bil_re": 100.0, "Bil_hnx": null, "Pyramide": "3", "ORIG_FID": 13 }, "geometry": { "type": "Point", "coordinates": [ 2.458509191546, 46.625970946302175 ] } },
{ "type": "Feature", "properties": { "name": "GREECE", "Bev": 10473452.0, "Bev_Arm_ab": 2084216.0, "Bev_Arm_re": 19.9, "Bev_Bil_ab": 0.0, "Bev_Bil_re": 75.2, "Bil_hnx": null, "Pyramide": "4", "ORIG_FID": 14 }, "geometry": { "type": "Point", "coordinates": [ 22.58159763152554, 39.471125015007487 ] } },
{ "type": "Feature", "properties": { "name": "GERMANY", "Bev": 83517046.0, "Bev_Arm_ab": 14281414.0, "Bev_Arm_re": 17.1, "Bev_Bil_ab": 0.0, "Bev_Bil_re": 96.0, "Bil_hnx": null, "Pyramide": "4", "ORIG_FID": 15 }, "geometry": { "type": "Point", "coordinates": [ 10.380408545318176, 51.0904390937892 ] } },
{ "type": "Feature", "properties": { "name": "IRELAND", "Bev": 4882498.0, "Bev_Arm_ab": 771434.0, "Bev_Arm_re": 15.8, "Bev_Bil_ab": 0.0, "Bev_Bil_re": 100.0, "Bil_hnx": null, "Pyramide": "3", "ORIG_FID": 16 }, "geometry": { "type": "Point", "coordinates": [ -8.143429492676887, 53.177108831907105 ] } },
{ "type": "Feature", "properties": { "name": "ITALY", "Bev": 60550092.0, "Bev_Arm_ab": 11746717.0, "Bev_Arm_re": 19.4, "Bev_Bil_ab": 0.0, "Bev_Bil_re": 94.9, "Bil_hnx": null, "Pyramide": "4", "ORIG_FID": 17 }, "geometry": { "type": "Point", "coordinates": [ 12.573692777999327, 42.790178053374518 ] } },
{ "type": "Feature", "properties": { "name": "HUNGARY", "Bev": 9684679.0, "Bev_Arm_ab": 1249323.0, "Bev_Arm_re": 12.9, "Bev_Bil_ab": 0.0, "Bev_Bil_re": 95.7, "Bil_hnx": null, "Pyramide": "4", "ORIG_FID": 18 }, "geometry": { "type": "Point", "coordinates": [ 19.412762824145091, 47.16524724656324 ] } },
{ "type": "Feature", "properties": { "name": "NORWAY", "Bev": 5378858.0, "Bev_Arm_ab": 634705.0, "Bev_Arm_re": 11.8, "Bev_Bil_ab": 0.0, "Bev_Bil_re": 97.5, "Bil_hnx": null, "Pyramide": "3", "ORIG_FID": 19 }, "geometry": { "type": "Point", "coordinates": [ 11.474027990799186, 61.340666009129052 ] } },
{ "type": "Feature", "properties": { "name": "LATVIA", "Bev": 1906740.0, "Bev_Arm_ab": 429016.0, "Bev_Arm_re": 22.5, "Bev_Bil_ab": 0.0, "Bev_Bil_re": 96.0, "Bil_hnx": null, "Pyramide": "4", "ORIG_FID": 20 }, "geometry": { "type": "Point", "coordinates": [ 26.42332987207601, 56.641825661924827 ] } },
{ "type": "Feature", "properties": { "name": "LIECHTENSTEIN", "Bev": 38137.0, "Bev_Arm_ab": 3852.0, "Bev_Arm_re": 10.1, "Bev_Bil_ab": 0.0, "Bev_Bil_re": 83.7, "Bil_hnx": null, "Pyramide": "4", "ORIG_FID": 21 }, "geometry": { "type": "Point", "coordinates": [ 9.5529950993444, 47.141734552607545 ] } },
{ "type": "Feature", "properties": { "name": "LITHUANIA", "Bev": 2759631.0, "Bev_Arm_ab": 612638.0, "Bev_Arm_re": 22.2, "Bev_Bil_ab": 0.0, "Bev_Bil_re": 91.0, "Bil_hnx": null, "Pyramide": "4", "ORIG_FID": 22 }, "geometry": { "type": "Point", "coordinates": [ 23.905080715402732, 55.336820082980523 ] } },
{ "type": "Feature", "properties": { "name": "LUXEMBOURG", "Bev": 615729.0, "Bev_Arm_ab": 91743.0, "Bev_Arm_re": 14.9, "Bev_Bil_ab": 0.0, "Bev_Bil_re": 96.1, "Bil_hnx": null, "Pyramide": "4", "ORIG_FID": 23 }, "geometry": { "type": "Point", "coordinates": [ 6.092668267626493, 49.776809068583702 ] } },
{ "type": "Feature", "properties": { "name": "MACEDONIA", "Bev": 2083000.0, "Bev_Arm_ab": 418683.0, "Bev_Arm_re": 20.1, "Bev_Bil_ab": 0.0, "Bev_Bil_re": 46.0, "Bil_hnx": null, "Pyramide": "4", "ORIG_FID": 24 }, "geometry": { "type": "Point", "coordinates": [ 21.70072579685808, 41.600288046256367 ] } },
{ "type": "Feature", "properties": { "name": "MALTA", "Bev": 440376.0, "Bev_Arm_ab": 68258.0, "Bev_Arm_re": 15.5, "Bev_Bil_ab": 0.0, "Bev_Bil_re": 95.3, "Bil_hnx": null, "Pyramide": "4", "ORIG_FID": 25 }, "geometry": { "type": "Point", "coordinates": [ 14.44006795567168, 35.889123918733901 ] } },
{ "type": "Feature", "properties": { "name": "NETHERLANDS", "Bev": 17097123.0, "Bev_Arm_ab": 2085849.0, "Bev_Arm_re": 12.2, "Bev_Bil_ab": 0.0, "Bev_Bil_re": 96.9, "Bil_hnx": null, "Pyramide": "3", "ORIG_FID": 26 }, "geometry": { "type": "Point", "coordinates": [ 5.328771894507383, 51.867067420924798 ] } },
{ "type": "Feature", "properties": { "name": "MONTENEGRO", "Bev": 628061.0, "Bev_Arm_ab": 153874.0, "Bev_Arm_re": 24.5, "Bev_Bil_ab": 0.0, "Bev_Bil_re": 75.0, "Bil_hnx": null, "Pyramide": "3", "ORIG_FID": 27 }, "geometry": { "type": "Point", "coordinates": [ 19.251726757084214, 42.786796850694145 ] } },
{ "type": "Feature", "properties": { "name": "PORTUGAL", "Bev": 19364557.0, "Bev_Arm_ab": 3524349.0, "Bev_Arm_re": 18.2, "Bev_Bil_ab": 0.0, "Bev_Bil_re": 93.7, "Bil_hnx": null, "Pyramide": "4", "ORIG_FID": 28 }, "geometry": { "type": "Point", "coordinates": [ -7.964758710446063, 39.686795661690496 ] } },
{ "type": "Feature", "properties": { "name": "POLAND", "Bev": 37887771.0, "Bev_Arm_ab": 5683165.0, "Bev_Arm_re": 15.0, "Bev_Bil_ab": 0.0, "Bev_Bil_re": 93.0, "Bil_hnx": null, "Pyramide": "4", "ORIG_FID": 29 }, "geometry": { "type": "Point", "coordinates": [ 19.4069025251315, 52.122303866929997 ] } },
{ "type": "Feature", "properties": { "name": "ROMANIA", "Bev": 19364557.0, "Bev_Arm_ab": 4570035.0, "Bev_Arm_re": 23.6, "Bev_Bil_ab": 0.0, "Bev_Bil_re": 78.3, "Bil_hnx": null, "Pyramide": "4", "ORIG_FID": 30 }, "geometry": { "type": "Point", "coordinates": [ 24.973771043698775, 45.842416992250435 ] } },
{ "type": "Feature", "properties": { "name": "SERBIA", "Bev": 8737369.0, "Bev_Arm_ab": 2131918.0, "Bev_Arm_re": 24.4, "Bev_Bil_ab": 0.0, "Bev_Bil_re": 93.7, "Bil_hnx": null, "Pyramide": "3", "ORIG_FID": 31 }, "geometry": { "type": "Point", "coordinates": [ 20.794466766328242, 44.230158163968156 ] } },
{ "type": "Feature", "properties": { "name": "SLOVAKIA", "Bev": 5457011.0, "Bev_Arm_ab": 687583.0, "Bev_Arm_re": 12.6, "Bev_Bil_ab": 0.0, "Bev_Bil_re": 82.2, "Bil_hnx": null, "Pyramide": "4", "ORIG_FID": 32 }, "geometry": { "type": "Point", "coordinates": [ 19.484881543648385, 48.707407461085495 ] } },
{ "type": "Feature", "properties": { "name": "SLOVENIA", "Bev": 2078654.0, "Bev_Arm_ab": 297247.0, "Bev_Arm_re": 14.3, "Bev_Bil_ab": 0.0, "Bev_Bil_re": 93.1, "Bil_hnx": null, "Pyramide": "4", "ORIG_FID": 33 }, "geometry": { "type": "Point", "coordinates": [ 14.821619266016341, 46.119401370077242 ] } },
{ "type": "Feature", "properties": { "name": "SPAIN", "Bev": 46736782.0, "Bev_Arm_ab": 9674513.0, "Bev_Arm_re": 20.7, "Bev_Bil_ab": 0.0, "Bev_Bil_re": 98.0, "Bil_hnx": null, "Pyramide": "4", "ORIG_FID": 34 }, "geometry": { "type": "Point", "coordinates": [ -3.554890241691226, 40.390853532664437 ] } },
{ "type": "Feature", "properties": { "name": "SWITZERLAND", "Bev": 8591361.0, "Bev_Arm_ab": 1177016.0, "Bev_Arm_re": 13.7, "Bev_Bil_ab": 0.0, "Bev_Bil_re": 73.6, "Bil_hnx": null, "Pyramide": "4", "ORIG_FID": 35 }, "geometry": { "type": "Point", "coordinates": [ 8.223157999442151, 46.966170973911346 ] } },
{ "type": "Feature", "properties": { "name": "UNITED KINGDOM", "Bev": 67530161.0, "Bev_Arm_ab": 10197054.0, "Bev_Arm_re": 15.1, "Bev_Bil_ab": 0.0, "Bev_Bil_re": 100.0, "Bil_hnx": null, "Pyramide": "3", "ORIG_FID": 36 }, "geometry": { "type": "Point", "coordinates": [ -0.23336109543817, 52.244027912558181 ] } }
]
}
